Sr.No	PIC	Name of Dam	Operated & Maintained by	Latitude	Longitude	Year of Completion	River Basin	River	Neareast City	Seismic Zone	Dam Type	Height above Lowest Foundation Level	Dam Length	Volume Content of Dam	Gross Storage Capacity	Reservoir Area	Effective Storage Capacity	Purpose	Designed Spillway Capacity
53	KA06HH0055	Linganamakki Dam	Karnataka Water Resources Department	14.17555556	74.84638889	1964	West Flowing Rivers from Tadri to Kanyakumari	Sharavathi.	sagar	III	Composite_Masonry_and_Earth_fill	61.26	2749.29	4080000	4435350000	317280000	4293940000	H	6834
165	KA06VH0168	Supa Dam	Karnataka Water Resources Department	15.27611111	74.52666667	1987	West Flowing Rivers from Tapi to Tadri	Kali Nadi	supa dandeli	II	Other	101	331.29	1020000	4178000000	129000000	4115000000	H	2825
34	KA06HH0036	Tungabhadra Dam	Karnataka Water Resources Department	15.25527778	76.33333333	1953	Krishna	Tungabhadra	Hospet	II	Earthfill_Embankment	49.39	2449	1164000	3737823750	378100000	3308540356	I/H/S/D/T/F	18405.93294
197	KA06HH0200	Almatti Dam	Karnataka Water Resources Department	16.33111111	75.88694444	2000	Krishna	Krishna	Basavana Bagevadi	II	Composite_Other	49.29	1564.83	1349990	3485237478	487870000	2985445136	I/H	31007
56	KA06HH0058	Bhadra Dam	Karnataka Water Resources Department	13.70083333	75.63611111	1965	Krishna	Bhadra	Tarikere	II	Composite_Masonry_and_Rock_fill	76.81	1708	2525000000	2025870000	112508800	1785000000	I/H/S	3020
105	KA06HH0107	Hidkal Dam	Karnataka Water Resources Department	16.14111111	74.64	1977	Krishna	Ghataprabha	hukeri	III	Composite_Other	62.4800356006	4480.55985662	1.258824229E+12	1448690000	63380000	1321830000	I/H/S	4616
18	KA06HH0020	K.R.Sagara Dam	Karnataka Water Resources Department	12.425	76.57083333	1931	Cauvery	Cauvery	Pandava pura	II	Masonry_Gravity	42.62	2621	849000	1400000000	10619000	1275690000	I	9793.891
115	KA06HH0117	Hemavathy Dam	Karnataka Water Resources Department	12.82222222	76.05277778	1979	Cauvery	Hemavathy	Hassan	II	Earthfill_Embankment	58.5	4692	5782500	1050630000	22640000	1012610000	I/H/S/D/T/F/O	3624.56
171	KA06HH0174	Mani	Karnataka Water Resources Department	13.67583333	75.04555556	1988	West Flowing Rivers from Tadri to Kanyakumari	Varahi	horanagara	III	Other	59	580	1000000	961750000	56000000	883810000	H	2825
87	KA06HH0089	Malaprabha Dam	Karnataka Water Resources Department	15.82111111	75.09611111	1972	Krishna	Malaprabha	parasgad	II	Masonry_Gravity	43.13	154.53	182000	1068000000	135780000	830250000	I/H/N/S/D/T/C/F/O	5236
13	KA06HH0015	Vanivilasa Sagar Dam	Karnataka Water Resources Department	13.88805556	76.48833333	1907	Krishna	Vedavathy	Hiriyur	II	Masonry_Gravity	49.37	405.4	47800000	850300000	87630000	802500000	I/S/T/F	991
140	KA06MH0142	Narayanapura Dam	Karnataka Water Resources Department	16.22388889	76.34472222	1982	Krishna	Krishna	muddevihal	II	Composite_Other	29.72	10637.52	18270000	943281000	134500000	740000000	I/H	37945
180	KA06MH0183	Upper Hirenala Tank	Karnataka Water Resources Department	15.72888889	76.315	1989	Krishna	Hirehalla	Kushtagi	II	Earthfill_Embankment	18.27	1935	6538	653800000	1370000	565800000	I	657.13
146	KA06MH0148	Hulikere Tank	Karnataka Water Resources Department	15.4875	74.74305556	1984	West Flowing Rivers from Tapi to Tadri	Hulikere Nala	Dharwad	II	Earthfill_Embankment	21.75	637	3643000	551650000	1300000	501500000	I	177.00
96	KA06HH0098	Kabini Dam	Karnataka Water Resources Department	11.97388889	76.35166667	1974	Cauvery	Kabini	heggodade vankote	II	Composite_Concrete_and_Earth_fill	59.435	2732.53	952080	552740000	64030000	453065000	I/H	5498
139	KA06MH0141	Kanvikervinkoppa Tank	Karnataka Water Resources Department	15.76472222	74.58361111	1982	Krishna	Local Nala Malaprabha Sub Basin	Belgaum	II	Earthfill_Embankment	16.76	454	166420	491510000	207100	420000000	I	29.72
138	KA06LH0140	Jigajinagi Tank	Karnataka Water Resources Department	17.15527778	75.66638889	1982	Krishna	Jigajinagi	indi	III	Other	11.93	1420	85110	404330000	1660000	376600000	I	221.08
136	KA06LH0138	Chikkalingadalli	Karnataka Water Resources Department	17.44111111	77.48194444	1982	Krishna	Local Mullamari K-6	Chincholi	II	Earthfill_Embankment	14.48	701.04	425000	425516000	650000	357037000	I	63.47
189	KA06LH0192	Hiresangagutti	Karnataka Water Resources Department	15.98916667	76.19638889	1993	Krishna	Hiresangagutti	hungund	II	Other	11.45	260	20180	380190000	324000	312440000	I	156.48
123	KA06HH0125	Tattihalla Dam	Karnataka Water Resources Department	15.11694444	74.785	1979	West Flowing Rivers from Tapi to Tadri	Kali Nadi	yellapur	II	Other	44	1337.04	836000	264030000	27000000	249260000	H	4960
191	KA06VH0194	Lakhya Dam	Karnataka Water Resources Department	13.21722222	75.22444444	1994	Krishna	LAKHYA HOLE	mudigere	III	Earthfill_Embankment	108	1048	11000000	273790000	6050000	245000000	S	33
137	KA06HH0139	Harangi Dam	Karnataka Water Resources Department	12.49388889	75.905	1982	Cauvery	Harangi	Somavarapet	II	Composite_Masonry_and_Earth_fill	53	845.82	516630	240690000	4715000	228600000	I/H	3403.00
182	KA06LH0185	Kadlewadi Tank	Karnataka Water Resources Department	16.91888889	76.03888889	1990	Krishna	Kadlewadi	sindgi	II	Other	11.52	1080	65060	245310000	785000	215700000	I	198.36
195	KA06HH0198	Kadra Dam	Karnataka Water Resources Department	14.89777778	74.355	1997	West Flowing Rivers from Tapi to Tadri	Kali Nadi	Karwar	III	Other	40.5	2313	4207000	388920000	34330000	209060000	H	8299
135	KA06HH0137	Narihalla Dam	Karnataka Water Resources Department	15.12388889	76.60472222	1981	Krishna	Narihalla	Sandur	II	Other	32.92	295	512630	229360000	2490000	208700000	I	1238
178	KA06MH0181	Karanja Dam	Karnataka Water Resources Department	17.88777778	77.31309444	1989	Godavari	Karanja	bhalki	II	Earthfill_Embankment	28.1	3480	1449410	217660000	56730000	207050000	I/S	7080
224	KA06LH0229	Bheemasamudra Dam	Karnataka Water Resources Department	14.18138889	76.24805556		Krishna	Jinigi halla	Chitradurga	II	Earthfill_Embankment	14.2	840	5126000	256230000	118110000	204980000	I	200.28
199	KA06HH0202	Kodasalli	Karnataka Water Resources Department	14.91944444	74.53555556	2000	West Flowing Rivers from Tapi to Tadri	Kali Nadi	supa	II	Other	52.1	534	574000	286490000	17140000	178820000	H	7460
147	KA06MH0149	Muchakhandi	Karnataka Water Resources Department	16.14222222	75.66527778	1984	Krishna	Muchakhandi	Bagalkot	II	Other	18.3	158	11560	189110000	3646000	164350000	I	538.00
227	KA06MH0232	Hipparagi Barrage	Karnataka Water Resources Department	16.5525	75.16583333	2004	Krishna	Krishna	hipparagi	II	Earthfill_Embankment	26	5783	31160000	169901080	29980000	147247602	I/S	19810
201	KA06HH0204	Bennithora Dam	Karnataka Water Resources Department	17.44611111	77.02	2001	Krishna	Bennithora	chilapur	II	Composite_Concrete_and_Earth_fill	31.39	2270	748700000	149980000	24730000	140700000	I	8801
39	KA06HH0041	Nugu Dam	Karnataka Water Resources Department	11.97638889	76.44472222	1959	Cauvery	Nugu	H.D.Kote	II	Other	43.58	637.65	342960	154042000	2676000	138554330	I/H	566
153	KA06HH0155	Chakra Dam	Karnataka Water Resources Department	13.81944444	74.95444444	1985	West Flowing Rivers from Tadri to Kanyakumari	Chakra	hosanagara	III	Rock_fill_Embankment	84	570	2265000	222600000	11500000	133000000	H	440
158	KA06LH0161	Dasanahalli Tank	Karnataka Water Resources Department	14.84194444	75.7775	1986	Krishna	Krishna T.Bhadra	huvvinahada galli	II	Earthfill_Embankment	11.83	780	14196000	124300000	1200000	112000000	I	123.4
145	KA06LH0147	Talakal Tank	Karnataka Water Resources Department	14.93333333	76.04694444	1983	Krishna	Krishna	huvvinahada galli	II	Earthfill_Embankment	14.02	1200	5473000	114900000	650000	98000000	I	68.00
203	KA06MH0206	Yagachi Dam	Karnataka Water Resources Department	13.18083333	75.86861111	2001	Cauvery	Yagachi	Belur Town	II	Other	26.24	1280	945660	102000000	19618190	91720000	I/S	2020
150	KA06HH0152	Taraka Dam	Karnataka Water Resources Department	12.03861111	76.25888889	1984	Cauvery	Taraka	H.D.Kote	II	Other	37.49	1272.5	640810	111567000	2700000	90754000	I	1132.60
228	KA06HH0233	Markandeya Dam	Karnataka Water Resources Department	16.01861111	74.64416667	2005	Krishna	Markandeya	hukeri	III	Other	47	475	414000	104660000	8980000	90190000	I	3728
111	KA06HH0113	Bommanahalli Pickup	Karnataka Water Resources Department	15.16333333	74.69805556	1979	West Flowing Rivers from Tapi to Tadri	Kal river	haliyal	II	Other	30.45	1024.8	514000	97254000	15530000	84851000	H	8822
22	KA06MH0024	Maralvadi Dam	Karnataka Water Resources Department	12.56277778	77.45666667	1938	Cauvery	Arkavathy	Kanakapura	II	Earthfill_Embankment	16.5	480	162900	74040000	690000	67350000	I	453.06
128	KA06HH0130	Savehakalu Dam	Karnataka Water Resources Department	13.78444444	74.97055556	1980	West Flowing Rivers from Tadri to Kanyakumari	Savehaklu	Shimoga	III	Earthfill_Embankment	53	633	1578000	124970000	9400000	66970000	H	500
225	KA06MH0230	Bhima Lift Dam	Karnataka Water Resources Department	17.17166667	76.31194444	2010	Krishna	Bhima	sonna	III	Other	18.4	2250	276250	70707166	20548309.4231	66686174.000099	I	25488
25	KA06MH0027	Marconahally	Karnataka Water Resources Department	12.93333333	76.88027778	1940	Cauvery	Shimsha Valley	Kunigal	II	Other	22.25	1812	1180000	68000000	13380000	64000000	I	1700
198	KA06HH0201	Gerusoppa Dam	Karnataka Water Resources Department	14.25083333	74.67638889	2000	West Flowing Rivers from Tadri to Kanyakumari	Sharavathi.	Honnavar	III	Other	62	421	664000	131461000	5980000	58210000	H	6245
208	KA06MH0211	Upper Tunga Dam	Karnataka Water Resources Department	13.84138889	75.52666667	2005	Krishna	tunga	Shimoga	II	Earthfill_Embankment	17.5	791.39	357278000	91859763.781088	16317500	50205721.696631	I/H/S	7362.3
204	KA06MH0207	Gandorinala Dam	Karnataka Water Resources Department	17.56	76.91972222	2002	Krishna	Gandorinala	Gulbarga	II	Other	24.27	1813.5	1488900	53450000	6640000	49450000	I	2223
24	KA06LH0026	Ballasamudra Tank	Karnataka Water Resources Department	13.6875	76.27833333	1940	Krishna	Toddahalla	Hosadurga	II	Earthfill_Embankment	12	785	125000	50900000	2000000	47500000	I	421.74
202	KA06MH0205	Lower Mullamari Dam	Karnataka Water Resources Department	17.53805556	77.26694444	2001	Krishna	Mullamari	Chincholi	II	Earthfill_Embankment	24.46	1546	296390	49271313	8440000	43324775	I	3189
207	KA06MH0210	Arkavathy Dam	Karnataka Water Resources Department	12.42361111	77.44083333	2004	Cauvery	Arkavathy	Kanakapura	II	Other	29.69	720	419820	44940000	6650000	40493000	I	5946.54
196	KA06HH0199	Amarja Dam	Karnataka Water Resources Department	17.48527778	76.55138889	1998	Krishna	Amarja	aland	II	Composite_Concrete_and_Earth_fill	31.85	960	873000	44010000	6410000	40070000	I	2832
181	KA06HH0184	Varahi H.E.Pickup	Karnataka Water Resources Department	13.695	74.99805556	1989	West Flowing Rivers from Tadri to Kanyakumari	Varahi	kundapura	III	Other	39.6	244	90280	82350000	699000000	39872000	H	6205
21	KA06MH0023	Anjanapura Tank	Karnataka Water Resources Department	14.15361111	75.38333333	1936	Krishna	Kumudavathy	Shikaripur	II	Earthfill_Embankment	21.33	1600	0	39770000	1134000	39770000	I	1105
152	KA06HH0154	Votehole Dam	Karnataka Water Resources Department	13.05835833	75.91058611	1984	Cauvery	Votehole	Belur Town	II	Composite_Concrete_and_Earth_fill	44.48	900	656000	42758000	1468000	38680000	I	577.33
205	KA06MH0208	Hirehalla Dam	Karnataka Water Resources Department	15.4475	76.11333333	2002	Krishna	Hirehalla and Veerapurhalla	Koppal	II	Other	17.62	3606.6	2340000	47289134	12470000	37095069	I	2945
149	KA06MH0151	Suvarnavathy Dam	Karnataka Water Resources Department	11.82777778	77.01666667	1984	Cauvery	Suvarnavathy	chamaraja nagar	II	Other	25.9	1170.4	97620	356790000	1212200	35650000	I	830.00
89	KA06MH0091	Chandrampalli Dam	Karnataka Water Resources Department	17.53416667	77.46138889	1973	Krishna	Sarnala	Chincholi	II	Earthfill_Embankment	28.65	926.54	454000	34210000	3570000	31410000	I	869.32
190	KA06HH0193	Manchanabele	Karnataka Water Resources Department	12.875	77.33611111	1993	Cauvery	Arkavathy	magadi	II	Other	38.71	362.2	662510	34580000	3650000	30044000	I	2264
35	KA06MH0037	Neerasagara Dam	Karnataka Water Resources Department	15.31166667	74.98694444	1955	West Flowing Rivers from Tapi to Tadri	Bedtinala	Kalghatgi	II	Earthfill_Embankment	24.6	1158.25	761000	28924000	4387000	26170000	S	1048
194	KA06MH0197	Chulkinala Dam	Karnataka Water Resources Department	17.94166667	77.01472222	1997	Godavari	CHULKINALA	Basava Kalyan	II	Earthfill_Embankment	18	2340	557280	26561000	7380000	25010000	I	1170
126	KA06HH0128	Gundal Dam	Karnataka Water Resources Department	12.09222222	77.19805556	1980	Cauvery	Gundal	Kollegala	II	Earthfill_Embankment	31.55	1219	171860	27438800	697000	23220000	I	467
29	KA06MH0031	Kanva Dam	Karnataka Water Resources Department	12.72361111	77.19333333	1946	Cauvery	Kanva	Channapatna	II	Earthfill_Embankment	22.57	1422	212290	23880000	4370000	22710000	I	395
51	KA06MH0053	Dharma Reservoir	Karnataka Water Resources Department	14.72333333	75.00333333	1964	Krishna	Dharma Nala	Mundagod	II	Earthfill_Embankment	23.25	1448.20	1789930	23040000	4971000	22240000	I	707.81
28	KA06MH0030	Byramangala Tank	Karnataka Water Resources Department	12.76	77.4175	1943	Cauvery	Vrishabhavathy	Ramanagara	II	Composite_Masonry_and_Earth_fill	22.85	2286	1711.84	24100000	4122000	22010000	I	229.36
20	KA06HH0022	Tippagondana Hally	Karnataka Water Resources Department	12.96611111	77.33416667	1934	Cauvery	Kumadavati	Bangalore	II	Other	49.68	451.104	120164	94719000	6837570	19713000	S	1168.04
151	KA06MH0153	Upper Mullamari Dam	Karnataka Water Resources Department	17.71194444	77.00611111	1984	Krishna	Mullamari	Basava Kalyan	II	Earthfill_Embankment	28.4	810	489150	21220000	6340000	18880000	I	1054
48	KA06MH0050	Gayathri Reservoir	Karnataka Water Resources Department	13.79694444	76.71861111	1963	Krishna	Suvarnamuki	Hiriyur	II	Earthfill_Embankment	17.07	1021.53	9500000	27630000	18310000	18080000	I	442
157	KA06MH0159	Upper Kaneri	Karnataka Water Resources Department	15.11055556	74.3575	1985	West Flowing Rivers from Tapi to Tadri	kaneri nadi	Sambalpur	II	Other	27	146.35	24700	163300000	2490000	16150000	H	1954
47	KA06MH0049	Rakkaskop Dam	Karnataka Water Resources Department	15.8125	74.37083333	1962	Krishna	Markandeya	Belgaum	III	Other	26.34	358.37	431380	16620000	3500000	16116000	S	311.53
2	KA06LH0002	Madaga Tank (old)	Karnataka Water Resources Department	14.3475	75.4125	1908	Krishna	Kumadavati River	Hirekerur	II	Earthfill_Embankment	32.87	950	2146000	17500000	720000	16000000	I	37.37
8	KA06LH0010	Kadaba Tank	Karnataka Water Resources Department	13.24222222	76.87861111	1906	Cauvery	Shimsha Valley	Gubbi	II	Earthfill_Embankment	10.5	1680	357200	16530000	6790000	15700000	I	146.50
230	KA06HH0235	Uduthorehalla Dam	Karnataka Water Resources Department	12	77.32916667	2009	Cauvery	Uduthorehalla	Kollegal	II	Earthfill_Embankment	46	1530	112480	18969000	1250000	15147000	I	850
218	KA06MH0223	Mallaghatta Tank	Karnataka Water Resources Department	13.17583333	76.62333333		Cauvery	Shimsha Valley	Turuvekere	II	Earthfill_Embankment	15.6	750.000	239290	16620000	6300000	14860000	I/S/F	344.89
12	KA06LH0014	Ranikere Tank	Karnataka Water Resources Department	14.32388889	76.73138889	1907	Krishna	Garnihalla	Challakere	II	Earthfill_Embankment	12.19	960	106000	15260000	5827600	14260000	I	274.60
9	KA06LH0011	Kunigal Dodakere Tank	Karnataka Water Resources Department	13.03194444	77.02694444	1906	Cauvery	Nagini	Kunigal	II	Earthfill_Embankment	11	2000	5170000	15070000	416000	13700000	I	224.60
55	KA06HH0057	Talakalale Dam	Karnataka Water Resources Department	14.19444444	74.78166667	1964	West Flowing Rivers from Tadri to Kanyakumari	Sharavathy	sagar	III	Other	62.48	353.6	320000	129480000	7680000	13610000	H	232
72	KA06LH0074	Mangala Tank	Karnataka Water Resources Department	12.94388889	76.89611111	1969	Cauvery	Nagini River	Kunigal	II	Earthfill_Embankment	13.1	610	108000	15007914.551164	4089000.0000001	13592073.555771	I	736.30
106	KA06MH0108	Mangala Tank	Karnataka Water Resources Department	11.64777778	76.64722222	1977	Cauvery	Cauvery	Gundlupet	II	Earthfill_Embankment	25	661.4	52000000	15007914.551164	4089000.0000001	13592073.555771	I	8025
229	KA06MH0234	Ranganayanadurga Tank	Karnataka Water Resources Department	14.75694444	76.66138889		Krishna	Jinagihalla	Molakalmuru	II	Earthfill_Embankment	19.88	900	341780	14158000	3220000	13130000	I	1586
1	KA06MH0001	Thonnur Tank	Karnataka Water Resources Department	12.56083333	76.64055556	1000	Cauvery	Hebballa Valley	Pandava pura	II	Earthfill_Embankment	24.38	118.8	15850000	13660000	4191750	12420000	I	400
226	KA06MH0231	Harinala Dam	Karnataka Water Resources Department	15.80638889	74.71666667	2004	Krishna	Harinala	sampgaon	II	Earthfill_Embankment	19.41	3120	640000	13790304	3900000	12062977	I	707.91
49	KA06MH0051	Ambligola Tank	Karnataka Water Resources Department	14.18611111	75.26055556	1964	Krishna	Vrushbhavathi	sagar	II	Earthfill_Embankment	20.77	881	12300000	12390000	4450000	11700000	I	262.68
206	KA06MH0209	Maskinala	Karnataka Water Resources Department	16.01388889	76.55444444	2003	Krishna	Maskinala	lingsugur	II	Composite_Concrete_and_Earth_fill	29.88	814	586640	13110000	1728000	10697000	I	2590
37	KA06MH0039	Chickkahole	Karnataka Water Resources Department	11.83414167	76.98859444	1958	Cauvery	Chikkahole	Chamarajnagar	II	Earthfill_Embankment	27.53	756	53080	10648000	1620000	10534000	I	765
108	KA06MH0110	Madaga Tank(New)	Karnataka Water Resources Department	13.31055556	77.32083333	1978	Krishna	Veda series	hungund	II	Earthfill_Embankment	24.4	360	56000	10500000	1315000	10500000	I	58
93	KA06MH0095	Bachanki Tank	Karnataka Water Resources Department	15.01444444	75.065	1974	West Flowing Rivers from Tapi to Tadri	Local	Mundagod	II	Earthfill_Embankment	23.31	777.24	583000	11140000	2030000	10380000	I	325
69	KA06MH0071	Sangenahalli Tank	Karnataka Water Resources Department	14.42194444	76.38361111	1968	Krishna	Jinigehalla	Jagalur	II	Earthfill_Embankment	15.55	1341	331210	11030000	3360000	10300000	I	269
7	KA06MH0008	Deepambudikere Tank	Karnataka Water Resources Department	12.85638889	77.06888889	1906	Cauvery	Nagini	Kunigal	II	Earthfill_Embankment	15	600	252450	12106000	2070000	9687000	I	37.64
17	KA06LH0019	Sowlanga Tank	Karnataka Water Resources Department	14.095	75.52638889	1928	Krishna	Hirehalla	Honnali	II	Earthfill_Embankment	12	900	131400	9440000	1762000	8990000	I	478
170	KA06HH0173	Hulical Forebay	Karnataka Water Resources Department	13.71111111	75.015	1988	West Flowing Rivers from Tadri to Kanyakumari	Hulicalnala	horanagara	III	Earthfill_Embankment	42	412	745000	150000000	9060000	8700000	H	
214	KA06LH0217	Sheelavantanakoppa D.kere	Karnataka Water Resources Department	14.32194444	75.33555556		Krishna	jamboor halla	shikarpur	II	Earthfill_Embankment	13.28	200		8620000	1380000	8440000	I	
94	KA06MH0096	Chigalli Tank	Karnataka Water Resources Department	14.90111111	75.06777778	1974	West Flowing Rivers from Tapi to Tadri	bedthi	mundgod	II	Earthfill_Embankment	20.74	830.8	374000	8850000	1652700	8210000	I	193.85
57	KA06MH0059	Hebbahalla Dam	Karnataka Water Resources Department	12.10666667	76.33	1965	Cauvery	hebballa	H.D.Kote	II	Earthfill_Embankment	19.2	996.65	982730	11978000	3160000	8190000	I	311.50
91	KA06MH0093	Hattikuni Dam	Karnataka Water Resources Department	16.87771111	77.17035833	1973	Krishna	Hattikuni	Yadgir	II	Earthfill_Embankment	22.88	923	399600	9970000	1220000	7930000	I	376.83
38	KA06MH0040	Ramanahalli tank	Karnataka Water Resources Department	16.9975	76.13722222	1958	Krishna	navalli nalla	Sindagi	II	Earthfill_Embankment	16.5	1619	830370	14469000	4620000	7787000	I	2377
164	KA06MH0167	Soudagar Dam	Karnataka Water Resources Department	16.88444444	77.14361111	1987	Krishna	Soudagar Nala	Yadgir	II	Earthfill_Embankment	27.03	600	840578.94	8120000	965000	7410000	I	217.31
75	KA06MH0077	Gandabommanahalli Tank	Karnataka Water Resources Department	14.77277778	76.58833333	1970	Krishna	Krishna T.Bhadra	Kudligi	II	Earthfill_Embankment	23.15	1397.5	427736	7315000	1780000	7315000	I	418.52
36	KA06MH0038	Areshankar	Karnataka Water Resources Department	16.41111111	76.01861111	1957	Krishna	Areshankar	Basavana Bagevadi	II	Other	19.2	1189	129320	8586450	2250000	7218700	I	1036.39
120	KA06MH0122	Prakruthi Tank	Karnataka Water Resources Department	14.91833333	76.72388889	1979	Krishna	Gundirehalla	Molakalmuru	II	Earthfill_Embankment	16.17	840	453800	8690000	1602600	7180000	I	379.55
5	KA06LH0005	Maidal Amanikere Tank	Karnataka Water Resources Department	13.30972222	77.18777778	1895	Cauvery	Agasarahalli nala	Tumkur	II	Earthfill_Embankment	13.8	810	147650	7400000	2137510	6970000	I	208.80
67	KA06HH0069	Jambadahalla Dam	Karnataka Water Resources Department	13.68111111	75.75583333	1968	Krishna	Jambadahalla	Tarikere	II	Earthfill_Embankment	31.7	838.1	800000	9684352.4084871	1640000	6909304.0575171	I	467.2
41	KA06MH0043	Kalasakoppa Tank	Karnataka Water Resources Department	16.14138889	75.50666667	1960	Krishna	Kalasakoppa	Bagalkot	II	Other	15.8	585	96870	6820300	2700000	6481200	I	237.86
160	KA06MH0163	Theetha Dam	Karnataka Water Resources Department	13.46833333	77.29166667	1986	Pennar	Jayamangali	Koratagere	II	Other	22.00	1017	20000.00	6853000	1530000	6287000	I	590
4	KA06MH0004	Boranakanive Tank	Karnataka Water Resources Department	13.60138889	76.635	1892	Krishna	Suvarnamuki SS VI	C.N.Halli	II	Other	24	39.6	2440000	6425000	13466000	6181000	I	941.58
27	KA06MH0029	Nelligudda Tank	Karnataka Water Resources Department	12.81083333	77.37833333	1940	Cauvery	Bidadi Halla	Ramanagara	II	Composite_Concrete_and_Masonry	17.07	740	362600	6570000		6130000	I	117.4
217	KA06LH0222	Lakshmisagar Tank	Karnataka Water Resources Department	13.77083333	76.81444444		Krishna	Suvarnamuki	Sira	II	Earthfill_Embankment	10.5	960	600000	6700000	2060000	6090000	I	400.71
220	KA06LH0225	Ramalingapura Tank	Karnataka Water Resources Department	13.62138889	76.77416667		Krishna	Suvarnamuki	Sira	II	Earthfill_Embankment	12	830	700000	6740000	2192000	6070000	I	114.19
163	KA06MH0166	Nallur Amanikere Dam	Karnataka Water Resources Department	11.84083333	76.70527778	1987	Cauvery	Gundlu	Gundlupet	II	Earthfill_Embankment	15.04	1802	11500	6541000	1950000	5890000	I	1005
80	KA06LH0082	Muthurayanakere	Karnataka Water Resources Department	12.81888889	77.00611111	1970	Cauvery	Local Nala	Kunigal	II	Earthfill_Embankment	12.06	1140	129000	6795000		5872000	I	144.35
167	KA06HH0170	Beeranahalli Tank	Karnataka Water Resources Department	17.56972222	77.36194444	1988	Krishna	Kal	Chincholi	II	Earthfill_Embankment	30.02	485	684000	6931000	650000	5798000	I	444
97	KA06MH0099	Majjur Tank	Karnataka Water Resources Department	15.18194444	75.63833333	1974	Krishna	Dodda Halla Nala T.B.Sub Basin	Gadag	II	Earthfill_Embankment	19.51	413.5	684150	6375600	1024000	5796000	I	276
85	KA06MH0087	H.B.Halli Pickup	Karnataka Water Resources Department	14.99777778	76.18944444	1972	Krishna	Hagari	Hagaribommanahalli	II	Composite_Masonry_and_Earth_fill	15.24	1759	126050	6370000	13520000	5620000	I	2701
101	KA06MH0103	Kanakanala Dam	Karnataka Water Resources Department	15.84611111	76.45388889	1975	Krishna	kanakanala	sindhnur	II	Earthfill_Embankment	20.12	975.65	208110	6370000	1930000	5620000	I	499
11	KA06LH0013	Nittur Tank	Karnataka Water Resources Department	13.33194444	76.86833333	1906	Cauvery	Shimsha Valley	Gubbi	II	Earthfill_Embankment	10.5	1350	286000	5410000	2520000	5410000	I	65.35
10	KA06LH0012	Nidasale Tank	Karnataka Water Resources Department	12.76833333	77.08222222	1906	Cauvery	Nagini	Kunigal	II	Earthfill_Embankment	11	870	198570	6632000	1248000	5306000	I	111.68
33	KA06LH0035	Yerakasandra Tank	Karnataka Water Resources Department	13.41916667	77.24416667	1952	Pennar	Local Stream	Tumkur	II	Earthfill_Embankment	10.6	600	157000	5600000	971000	5300000	I	149.62
81	KA06LH0083	Chittawadagi Tank	Karnataka Water Resources Department	15.98277778	76.01138889	1971	Krishna	Chittawadagi	Kushtagi	II	Other	12	481	45680	5785200	2080000	5204500	I	892
186	KA06MH0189	Durgadhalla Tank	Karnataka Water Resources Department	15.26972222	74.87444444	1991	West Flowing Rivers from Tapi to Tadri	Tattihalla Nala	haliyal	II	Earthfill_Embankment	22.78	962.77	866000	5480000	850000	5180000	I	254.84
92	KA06MH0094	Kachavanahalli Tank	Karnataka Water Resources Department	12.22722222	76.14833333	1973	Cauvery	Karigale and Hebbahalla	Hunsur	II	Earthfill_Embankment	16.3	722	23440	5740000	1260000	5100000	I	423.59
26	KA06MH0028	Markandeya Tank	Karnataka Water Resources Department	12.90833333	78.08416667	1940	East flowing rivers between Pennar and Cauvery Basin	Markandeya	Malur	II	Masonry_Gravity	18.60	206.5		5940000	1490000	5010000	I	231
3	KA06MH0003	Kottur Tank	Karnataka Water Resources Department	14.81388889	76.2325	1888	Krishna	Krishna T.Bhadra	Kudligi	II	Earthfill_Embankment	15	1777	39900000	4912000	2661600	4870000	I	182
223	KA06LH0228	Turuvekere Tank	Karnataka Water Resources Department	13.17666667	76.66833333		Cauvery	Shimsha Valley	Turuvekere	II	Earthfill_Embankment	12.2	870	179960	5070000	2740000	4870000	I	309.50
231	KA06MH0236	Varahi Diversion weir	Karnataka Water Resources Department	13.65777778	74.94833333	2009	West Flowing Rivers from Tadri to Kanyakumari	Varahi	Kundapur	III	Concrete_Gravity_or_RCC	22.5	147.20		6796036.7778857	1225700	4813859.3843357	I	4528
110	KA06LH0112	Balakundi Tank	Karnataka Water Resources Department	15.91305556	76.09055556	1979	Krishna	balakundi	hungund	II	Other	14.15	1640	120350	7455100	2509000	4775000	I	514.82
32	KA06LH0034	K.Honnamachanahalli	Karnataka Water Resources Department	12.88666667	76.98444444	1952	Cauvery	Local Halla	Kunigal	II	Earthfill_Embankment	10	630	127260	5210000	1111000	4750000	I	93.98
154	KA06MH0156	Chiklihole Dam	Karnataka Water Resources Department	12.39805556	75.87722222	1985	Cauvery	Chiklihole	Somavarapet	II	Earthfill_Embankment	25.3	464.8	285330	5097000	1072400	4729000	I	555
174	KA06MH0177	Asundinala Tank	Karnataka Water Resources Department	14.70277778	75.64555556	1989	Krishna	CHANDRAPURA HALLA	Ranebennur	II	Earthfill_Embankment	15.7	1595	332430	5500000	2267200	4570000	I	707.90
200	KA06MH0203	Kodli-Allapur	Karnataka Water Resources Department	17.42027778	77.20888889	2000	Krishna	Local Mullamari K-6	Chincholi	II	Earthfill_Embankment	16.93	510.00	495000.00	5011820	985000	4511400	I	198
61	KA06MH0063	Bellathasanahalla Tank	Karnataka Water Resources Department	11.94166667	77.10361111	1966	Cauvery	Bellathasanahalla	Yelandur	II	Earthfill_Embankment	18.89	1155.36	11720	4440000	670000	4440000	I	83.45
60	KA06MH0062	Yallur Tank	Karnataka Water Resources Department	15.77361111	74.53222222	1965	Krishna	Local Nala of Mkd Sb Bi	Belgaum	II	Earthfill_Embankment	15.5	393	139880	4371500	82900	4300000	I	420
221	KA06LH0226	Sarigehally Tank	Karnataka Water Resources Department	13.22694444	76.71861111		Cauvery	Shimsha	Turuvekere	II	Earthfill_Embankment	14.8	1200	503000	4300000	4200000	4300000	I	85.40
40	KA06LH0042	Parashuramapura New Tank	Karnataka Water Resources Department	14.25666667	76.89472222	1959	Krishna	Malenurahalla	Challakere	II	Earthfill_Embankment	12.19	1650	106000	5200000	2690000	4270000	I	604.64
23	KA06LH0025	Tumbodi Amanikere Tank	Karnataka Water Resources Department	13.5625	77.23527778	1939	Pennar	Dodda Halla	Koratagere	II	Earthfill_Embankment	12.6	480	172000	4160000	867000	3960000	I	229.84
74	KA06MH0076	Chakena Hally Tank	Karnataka Water Resources Department	12.88972222	76.24333333	1970	Cauvery	Hemavathy River	Holenarasipura	II	Earthfill_Embankment	17.3	886.75	360000	4280000	250000	3920000	I	1008
219	KA06LH0224	Mayasandra Tank	Karnataka Water Resources Department	13.08583333	76.75527778		Cauvery	Shimsha Valley	Mayasandra	II	Earthfill_Embankment	10.7	1410	310000	4860000	2100000	3885000	I	116.86
114	KA06MH0116	Haihole	Karnataka Water Resources Department	13.88722222	75.47833333	1979	Krishna	Haihole	Shimoga	II	Earthfill_Embankment	21	688	3760000	5110000	984180	3720000	I	126.88
109	KA06MH0111	Rangasamudra Tank	Karnataka Water Resources Department	15.94388889	75.85055556	1978	Krishna	Rangasamudra	Bagalkot	II	Other	23.8	317	131300	4693100	728200	3702000	I	523.86
215	KA06LH0218	Bharamasagara Doddakere	Karnataka Water Resources Department	14.3775	76.1975		Krishna	katte halla	Chitradurga	II	Earthfill_Embankment	12	1220	65880	4050000	1970000	3680000	I	219.76
129	KA06MH0131	Tegampur Tank	Karnataka Water Resources Department	18.23388889	77.4625	1982	Godavari	Local	aurad	II	Earthfill_Embankment	23.36	780	129890	4039000	860000	3636000	I/F	43.5
162	KA06MH0165	Gantenahalli Tank	Karnataka Water Resources Department	13.53583333	76.69777778	1987	Krishna	Suvarnamuki SS VI	C.N.Halli	II	Earthfill_Embankment	22.25	1020	210000	3990000	1096000	3600000	I	585.58
216	KA06LH0219	Bukkapatna Tank	Karnataka Water Resources Department	13.63194444	76.7475		Krishna	Suvarnamuki SS VI	Sira	II	Earthfill_Embankment	11.5	500	380000	3740000	1620000	3370000	I	67.94
179	KA06MH0182	Obichudanahally Tank	Karnataka Water Resources Department	12.80722222	77.52666667	1989	Cauvery	Arkavathy	Bangalore	II	Earthfill_Embankment	28.7	637	33040000	4670000	440000	3300000	I	81.46
184	KA06MH0187	Attiveri Tank	Karnataka Water Resources Department	15.0775	75.035	1991	West Flowing Rivers from Tapi to Tadri	Bedthi	Kalghatgi	II	Earthfill_Embankment	21.43	773.31	464000	4002000	400000	3210000	I	127.44
19	KA06LH0021	Doddaladahalli Tank	Karnataka Water Resources Department	12.41666667	77.37666667	1934	Cauvery	Arkavathy	Kanakapura	II	Earthfill_Embankment	14.95	330	14800	4353000		3190000	I	37
193	KA06MH0196	Iggalur Dam	Karnataka Water Resources Department	12.78166667	77.70416667	1996	Cauvery	Shimsha	Mandya	II	Other	11.27	1234	324630	5153000	1710000	3030000	I	5521
156	KA06MH0158	Hosahalli Tank	Karnataka Water Resources Department	12.02361111	77.09222222	1985	Cauvery	K.K.Halla	Yelandur	II	Earthfill_Embankment	16.76	868.68	436840	324000000	93070000	2940000	I	100.24
122	KA06MH0124	Seegehalla Tank	Karnataka Water Resources Department	13.93277778	75.38416667	1984	Krishna	Seegehalla	Shimoga	II	Earthfill_Embankment	16.5	660	162330	3000000	600000	2900000	I	84.50
161	KA06MH0164	Dandiganahally Tank	Karnataka Water Resources Department	13.50805556	77.65916667	1987	Pennar	North Pennar	Gowribidanur	II	Earthfill_Embankment	20.92	337	95430	3119000	398000	2898000	I	116.14
222	KA06LH0227	Singahallidalvayikere	Karnataka Water Resources Department	13.4425	76.74194444		Krishna	Suvarnamuki SS VI	C.N.Halli	II	Earthfill_Embankment	11.45	870	120000	3180000	1197000	2870000	I	139.36
68	KA06LH0070	Kalikatte Tank	Karnataka Water Resources Department	11.74805556	76.69027778	1968	Cauvery	Kalikattehalla	Gundlupet	II	Earthfill_Embankment	14.84	1122	2859000	3170000	2860000	2720000	I	418.84
192	KA06MH0195	Mundawad Tank	Karnataka Water Resources Department	15.06944444	75.77916667	1994	Krishna	SHIRAHATTE NALA	mundargi	II	Earthfill_Embankment	20.19	994	1476000	2959000	1417000	2690000	I	710
116	KA06MH0118	Hulikunta Tank	Karnataka Water Resources Department	14.99583333	76.39861111	1979	Krishna	Tungabhadra	Sandur	II	Earthfill_Embankment	28.65	550	14712000	2715000	513500	2576000	I	116
64	KA06LH0066	Kamarahalli Tank	Karnataka Water Resources Department	11.93694444	76.68555556	1967	Cauvery	K.Hallihalla	Gundlupet	II	Earthfill_Embankment	12	1020	2670	2960000	2670000	2540000	I	260.36
44	KA06LH0046	Makhanpur Tank	Karnataka Water Resources Department	16.98777778	75.73388889	1961	Krishna	Makhanpur	Bijapur.	II	Other	13.75	951	71290	2694400	970600	2530000	I	353.96
112	KA06MH0114	Chikkagondanahally Tank	Karnataka Water Resources Department	12.40527778	77.58527778	1979	Cauvery	Arkavathy	Kanakapura	II	Earthfill_Embankment	22.3	516	40210	5900000	350220	2463000	I	153
45	KA06LH0047	Nagathan Tank	Karnataka Water Resources Department	16.90611111	75.815	1961	Krishna	Nagathan nala	Bijapur.	II	Other	10.63	1125	68500	2775020	1295000	2412570	I	249.18
188	KA06LH0191	Gobbur Tank	Karnataka Water Resources Department	17.28333333	76.69555556	1993	Krishna	Gobbur Nala	Afzalpur	II	Earthfill_Embankment	10.3	1525	382000	3020000	1506800	2390000	I	722
155	KA06MH0157	Devarabillikere Tank	Karnataka Water Resources Department	14.39416667	75.83	1985	Krishna	Shagalihalla and Sulekere Halla	harihar	II	Earthfill_Embankment	17.4	1204	454610	2619000	6475000	2358000	I	1698.99
99	KA06LH0101	Bharatagi Tank	Karnataka Water Resources Department	16.91527778	75.76083333	1975	Krishna	BHARATAGI	Bijapur.	II	Other	13.02	1076	50180	2803330	1073400	2270700	I	488.25
118	KA06LH0120	Katral Tank	Karnataka Water Resources Department	16.61416667	75.51361111	1979	Krishna	Katral	Bijapur.	II	Other	11.22	1240	79250	2381000	1215000	2262000	I	326.77
143	KA06LH0145	Gowdahally Tank	Karnataka Water Resources Department	12.05055556	77.11527778	1983	Cauvery	K.K.Halla	Yelandur	II	Earthfill_Embankment	13.73	731.5	270400	239000000	60700000	2230000	I	71.98
168	KA06MH0171	Bhopalgod Belkone	Karnataka Water Resources Department	18.28277778	77.28194444	1988	Godavari	Local	aurad	II	Earthfill_Embankment	19.72	602	156200	2360000	161600	2158000	I	92.20
102	KA06LH0104	Kohalli Tank	Karnataka Water Resources Department	16.82722222	75.24666667	1975	Krishna	Hirehalla	Athani	III	Earthfill_Embankment	14.63	659	96200	2380000	971000	2144110	I	271
141	KA06MH0143	Alalur Tank	Karnataka Water Resources Department	12.24805556	76.10333333	1983	Cauvery	Lakshmanathirtha	piriyapatna	II	Other	17.41	939.6	2400	218000000	460000	2070000	I	50.18
15	KA06LH0017	Mavathur Tank	Karnataka Water Resources Department	13.44888889	77.33722222	1908	East flowing rivers between Krishna and Pennar	Garudachala	Koratagere	II	Earthfill_Embankment	14	1380	799000	2100000	3566000	2047000	I	204.36
131	KA06LH0133	Bommanahalli Tank	Karnataka Water Resources Department	16.99111111	75.77111111	1981	Krishna	Bommanahalli	Bijapur.	II	Other	12.7	770	36580	2548400	865000	2018840	I	331.30
127	KA06LH0129	Kunigal Thimmanahalli	Karnataka Water Resources Department	13.59583333	77.0875	1980	Krishna	Thimmanahalli nala	Tumkur	II	Earthfill_Embankment	14.2	330	133900	2170000	720000	1960000	I	102.50
176	KA06MH0179	Gopinatham Tank	Karnataka Water Resources Department	12.05	77.68944444	1989	Cauvery	Cauvery Basin	Kollegal	II	Earthfill_Embankment	18.16	402	176400	2180000	450000	1900000	I	222
65	KA06LH0067	Siddasamudra	Karnataka Water Resources Department	15.68666667	74.90555556	1967	Krishna	Local Nala Malaprabha Sub Basin	sampgaon	II	Earthfill_Embankment	13.72	712	212470	2158550	1045000	1880000	I	398
166	KA06MH0169	Ankamanhal Tank	Karnataka Water Resources Department	14.99388889	76.52027778	1988	Krishna	Krishna T.Bhadra	Sandur	II	Earthfill_Embankment	21.29	300	8516000	1931490	408600	1783644	I	102.2237199
130	KA06LH0132	Appenahalli Tank	Karnataka Water Resources Department	14.86722222	76.68305556	1981	Krishna	Krishna T.Bhadra	Kudligi	II	Earthfill_Embankment	13.75	525	5362000	1782000	390000	1782000	I	199
113	KA06LH0115	Gundwan tank at Site- 1	Karnataka Water Resources Department	17.1725	75.78777778	1979	Krishna	Gundwan - I	indi	II	Other	13.05	973	90060	2179200	1000000	1765200	I	283.73
211	KA06LH0214	Medleri Tank	Karnataka Water Resources Department	14.64722222	75.71611111		Krishna	Local Nala	Ranebennur	II	Earthfill_Embankment	10.68	701.5	36730	1744300	684450	1744300	I	198
46	KA06LH0048	Gundwan tank at Site- 2	Karnataka Water Resources Department	17.2275	75.81555556	1962	Krishna	Gundwan - II	indi	II	Other	11.21	690	52070	1840500	704200	1721000	I	465.58
103	KA06LH0105	Eakkundi Tank	Karnataka Water Resources Department	16.6	75.3	1976	Krishna	Eakkundi	Bijapur.	II	Other	11.17	860	59000	1914500	896700	1717300	I	227.18
71	KA06LH0073	Kuppakaddi Tank	Karnataka Water Resources Department	16.54333333	75.675	1969	Krishna	Kuppakadi	Basavana Bagevadi	II	Other	11.27	865	57850	1842050	737100	1656500	I	119.30
133	KA06LH0135	Ekamba Tank	Karnataka Water Resources Department	18.27638889	77.36277778	1981	Godavari	Local	aurad	II	Earthfill_Embankment	13	648	133860	183633000	383710	1654000	I	45.28
169	KA06MH0172	Changliar Tank	Karnataka Water Resources Department	17.63861111	77.37138889	1988	Krishna	mullamari k-b	homnabad	II	Earthfill_Embankment	17.89	505	105910	1797000	358400	1653000	I/F	66.70
209	KA06LH0212	Bukkambudi Doddekere	Karnataka Water Resources Department	13.84333333	75.97527778		Krishna	Local Halla	Tarikere	II	Earthfill_Embankment	13	1160	31000	1720000	1640000	1640000	I	22.4
148	KA06MH0150	New Tank Amachawadi	Karnataka Water Resources Department	11.85027778	76.90333333	1984	Cauvery	Yennehole Stream	chamaraja nagar	II	Earthfill_Embankment	15.29	540	4090	169000000	570000	1560000	I	206.60
16	KA06MH0018	Mavinahole Tank	Karnataka Water Resources Department	13.96694444	75.93666667	1928	Krishna	Local Halla	Channagiri	II	Earthfill_Embankment	20.11	585	461450	1840000	402000	1540000	I	1586
14	KA06HH0016	Madagamasur Tank	Karnataka Water Resources Department	14.35055556	75.41666667	1908	Krishna	Local	Ranebennur	II	Earthfill_Embankment	32.87	950		1595000		1529000	I	
82	KA06MH0084	Medipally Tank	Karnataka Water Resources Department	18.18	77.52333333	1971	Godavari	Local	aurad	II	Earthfill_Embankment	22.03	487	106120	1591000	346200	1517000	I	44.40
172	KA06LH0175	Aheri-jumbagi	Karnataka Water Resources Department	16.89555556	75.91555556	1989	Krishna	Aheri-jumbagi	Bijapur.	II	Other	10.59	1018	64000	1799000	670000	1501910	I	306
52	KA06LH0054	Krishyal Tank	Karnataka Water Resources Department	16.41611111	75.93083333	1964	Krishna	Krishyal	Basavana Bagevadi	II	Other	10.91	730	71290	1618000	704800	1458650	I	85.83
119	KA06LH0121	Mukherthihal Tank	Karnataka Water Resources Department	16.46888889	75.915	1979	Krishna	Mukherthihal	Basavana Bagevadi	II	Other	10.41	852	73460	1454000	570200	1445600	I	130.63
79	KA06MH0081	Murakumbi Tank	Karnataka Water Resources Department	15.85861111	74.87722222	1970	Krishna	CHELLA HALLA	parasgad	II	Earthfill_Embankment	16.94	726	57400	1456000	453200	1435000	I	226.50
66	KA06LH0068	Hanajagi Tank	Karnataka Water Resources Department	17.1325	75.88722222	1968	Krishna	Hanajagi	indi	II	Other	12.81	785	71060	1500000	700000	1415800	I	170
42	KA06LH0044	Babaleshwara Tank	Karnataka Water Resources Department	16.99027778	76.24833333	1961	Krishna	sindi halla	Sindagi	II	Earthfill_Embankment	12.11	975	91140	1905000	7288000	1362800	I	681.86
59	KA06LH0061	Tadavalga Tank	Karnataka Water Resources Department	17.06805556	75.91527778	1965	Krishna	Tadavalga Nala	indi	II	Other	11.02	1070	83240	1840400	708000	1323700	I	311.48
134	KA06LH0136	Kuvalgi Aheri	Karnataka Water Resources Department	16.8475	75.88361111	1981	Krishna	Kuvalgi Aheri	Bijapur.	II	Other	13.55	518	42100	1439000	532800	1296600	I	35.32
78	KA06MH0080	Mangalore Tank	Karnataka Water Resources Department	15.91277778	75.77	1970	Krishna	Mangalore	padami	II	Other	16.38	124	42650	1591100	331000	1288000	I	103.47
183	KA06LH0186	Yallammavadi Tank	Karnataka Water Resources Department	16.70138889	75.24583333	1990	Krishna	Local Nala Krishna Malaprabha Sub Basin	Athani	III	Earthfill_Embankment	10.3	775	71860	1479610	710000	1286520	I	210
43	KA06MH0045	Jawahar Dam	Karnataka Water Resources Department	16.39888889	74.36277778	1961	Krishna	Shiruguppi	chikodi	III	Other	21.64	676.16	221320	1840000	400000	1270000	S	291.62
124	KA06MH0126	Arbenchi Tank	Karnataka Water Resources Department	16.01138889	75.29	1980	Krishna	Arbenchi Nala	Ramadurga	II	Earthfill_Embankment	17.65	312	169580	1570000	203000	1270000	I	116
125	KA06LH0127	Devaramardikere	Karnataka Water Resources Department	13.67805556	76.63611111	1980	Krishna	Suvarnamuki	C.N.Halli	II	Earthfill_Embankment	10.67	407	170000	1410000	745000	1270000	I	143.16
50	KA06LH0052	Basavapattana	Karnataka Water Resources Department	16.17305556	75.32916667	1964	Krishna	Basavapattana	mudhol	II	Other	14.16	90	18290	1373400	458000	1263400	I	241.96
90	KA06LH0092	Hanchinal Tank	Karnataka Water Resources Department	16.86833333	75.73888889	1973	Krishna	Hanchinal	Bijapur.	II	Other	11.05	655	46280	1586600	629700	1245900	I	133.09
54	KA06LH0056	Sulkod Tank	Karnataka Water Resources Department	16.4425	75.80138889	1964	Krishna	Sulkod Nala	Basavana Bagevadi	II	Other	10.9	762.2	69810	1341300	577100	1220000	I	576.83
121	KA06LH0123	Ronihal Tank	Karnataka Water Resources Department	16.53722222	75.71388889	1979	Krishna	Ronihalla	Basavana Bagevadi	II	Other	13.02	689	61380	1353380	486000	1218500	I	248.25
62	KA06LH0064	Hirekop Tank	Karnataka Water Resources Department	15.86444444	74.90333333	1966	Krishna	Local Nala	parasgad	II	Earthfill_Embankment	12.39	785.4	65370	1465180	429300	1197000	I	305.78
70	KA06MH0072	Aigali Tank	Karnataka Water Resources Department	16.78055556	75.29527778	1969	Krishna	Hirehalla	Athani	III	Earthfill_Embankment	15.66	526.5	120990	1443370	436000	1192000	I	587
73	KA06LH0075	Yarazarvi Tank	Karnataka Water Resources Department	15.95555556	74.95527778	1969	Krishna	Local Nala	parasgad	II	Earthfill_Embankment	12.16	699	61240	1338900	415000	1164520	I	231
100	KA06LH0102	Haludyamanahalli Tank	Karnataka Water Resources Department	13.85166667	76.52416667	1975	Krishna	Kattehole	Hiriyur	II	Earthfill_Embankment	13.7	690	70350	1380000	474000	1140000	I	123
77	KA06LH0079	Kadatnal Tank	Karnataka Water Resources Department	15.67861111	74.79055556	1970	Krishna	kothagi nalla	sampgaon	II	Earthfill_Embankment	13.75	470	118680	1289350	539600	1120000	I	234
83	KA06MH0085	Ambadaga Tank	Karnataka Water Resources Department	15.35527778	74.69583333	1972	West Flowing Rivers from Tapi to Tadri	Tatti halla	haliyal	II	Earthfill_Embankment	18.3	185.9	70000	1190000	254000	1110000	I	23.34
185	KA06MH0188	Bhairapur Tank	Karnataka Water Resources Department	16.30972222	74.3775	1991	Krishna	Local Nala Krishna Malaprabha Sub Basin	hukari	III	Earthfill_Embankment	15.3	600.5	264250	1170000	310000	1110000	I	74.49
63	KA06LH0065	Hokarani Tank	Karnataka Water Resources Department	16.35361111	76.20555556	1966	Krishna	Hokarani	muddibhal	II	Other	11.72	755	76320	1184900	482700	1108000	I	126.01
104	KA06LH0106	Ramapura Tank	Karnataka Water Resources Department	15.51527778	74.69777778	1976	West Flowing Rivers from Tapi to Tadri	Local Nala	Khanapur	II	Earthfill_Embankment	14	345	38260	1203570	283500	1050000	I	45
175	KA06LH0178	Bidi Tank	Karnataka Water Resources Department	15.585	74.64138889	1989	Krishna	Local Nala Krishna Malaprabha Sub Basin	Khanapur	II	Earthfill_Embankment	11.67	580	58280	1212910	320000	1050000	I	41.78
84	KA06LH0086	Bellikindi Tank	Karnataka Water Resources Department	16.01055556	75.44083333	1972	Krishna	Bellikindi	badami	II	Other	11.91	457	43550	1075100	425700	989000	I	107.38
107	KA06LH0109	Hanamapur Tank	Karnataka Water Resources Department	16.09638889	74.88111111	1978	Krishna	Local Nala	Gokak	II	Earthfill_Embankment	14.33	375.75	18820	1118350	527600	972540	I	102.46
173	KA06MH0176	Alagapura Tank	Karnataka Water Resources Department	12.17083333	77.34166667	1989	Cauvery	Cauvery	Mysore	II	Earthfill_Embankment	16.85	645	754330	105000000	270000	940000	I	46.60
58	KA06LH0060	Kadatana Begewadi Tank	Karnataka Water Resources Department	15.60611111	74.64194444	1965	Krishna	banki halla	Khanapur	II	Earthfill_Embankment	13.55	594.5	42400	1041900	344000	910000	I	69.37
117	KA06MH0119	Itagi Tank	Karnataka Water Resources Department	15.65472222	74.67944444	1979	Krishna	Malaprabha	Khanapur	II	Earthfill_Embankment	15.25	757	93680	991510	204000	862120	I	11
159	KA06MH0162	Dinshi Tank	Karnataka Water Resources Department	17.59444444	77.03388889	1986	Krishna	Dinshi Nala	Gulbarga	II	Earthfill_Embankment	17.1	360	74949.00	930700	180000	835700	I	40
212	KA06LH0215	Vishnusamudra Tank	Karnataka Water Resources Department	13.46638889	76.13888889		Krishna	Veda series	Kadur	II	Earthfill_Embankment	12.8	1740	36000	853000	554000	817000	I	12.82
132	KA06MH0134	Chikkanagaon Tank	Karnataka Water Resources Department	17.67861111	76.93527778	1981	Krishna	Local Mullamari K-6	Basava Kalyan	II	Earthfill_Embankment	15.95	365	92980000	871000	216500	784000	I	28
76	KA06LH0078	Ghastoli Tank	Karnataka Water Resources Department	15.52611111	74.68388889	1970	West Flowing Rivers from Tapi to Tadri	Local Nala	Khanapur	II	Earthfill_Embankment	14.5	486	70300	8663600	259000	750000	I	71
95	KA06MH0097	Honkon Tank	Karnataka Water Resources Department	14.90083333	74.19194444	1974	West Flowing Rivers from Tapi to Tadri	Kali	Karwar	III	Earthfill_Embankment	18.6	170.8	51000	810510	230000	730830	I	10.85
213	KA06LH0216	Y.Urumundinakere Tank	Karnataka Water Resources Department	13.56777778	76.11611111		Krishna	Veda series	Kadur	II	Earthfill_Embankment	10	1930	20000	728000	675000	708000	I	538
88	KA06MH0090	Bavalgaon Tank	Karnataka Water Resources Department	18.41722222	77.34777778	1973	Godavari	Local	aurad	II	Earthfill_Embankment	22.39	389	90330	825000	340000	675000	I/F	46.58
30	KA06LH0032	Boodikere Tank	Karnataka Water Resources Department	14.03805556	75.59722222	1950	Krishna	Local Halla	Shimoga	II	Earthfill_Embankment	12	540	141900	1490000	329000	650000	I	85.81
31	KA06MH0033	Bullapura Tank	Karnataka Water Resources Department	14.38277778	75.59472222	1952	Krishna	Kumadavati River	Hirekerur	II	Earthfill_Embankment	18	114.6	18620	706200	80100	642000	I	21.70
177	KA06LH0180	Hebbal Tank	Karnataka Water Resources Department	15.58805556	74.5625	1989	Krishna	Local Nala Krishna Malaprabha Sub Basin	Khanapur	II	Earthfill_Embankment	12.64	530	56900	638730	133200	550000	I/S	14.46
210	KA06MH0213	Kowlihalla Tank	Karnataka Water Resources Department	11.94083333	77.24527778		Cauvery	Cauvery Basin	Kollegal	II	Earthfill_Embankment	18.5	393	710000	550000	60000	490000	I	36.90
187	KA06LH0190	Kadasagatti Tank	Karnataka Water Resources Department	15.63972222	74.87222222	1991	Krishna	Local Nala	Bailhongala	II	Earthfill_Embankment				339180	355000	290000	I	65.62
86	KA06MH0088	Karimuddenahalli Tank	Karnataka Water Resources Department	12.19888889	76.36583333	1972	Cauvery	Lakshman Theertha	Hunsur	II	Earthfill_Embankment	18.32	422.25	36000	180100	124860	179380	I	309
6	KA06LH0006	Hesaraghatta Reservoir	Karnataka Water Resources Department	13.14222222	77.48888889	1896	Cauvery	Arkavathy	Bangalore	II	Earthfill_Embankment	14.78	1560	0	29591000		114400	S	274.67
142	KA06LH0144	Aralihalli Tank	Karnataka Water Resources Department	14.94415833	75.80427222	1983	Krishna	Krishna	huvvinahada galli	II	Earthfill_Embankment	11.86	1920	29057000	20954.4467318	1395900	8495.04597236	I	192.5
144	KA06LH0146	Kyragunda Saddle	Karnataka Water Resources Department	13.74583333	75.00861111	1983	West Flowing Rivers from Tadri to Kanyakumari	Savehaklu	hosanagara	III	Earthfill_Embankment	14.5	800	210000	121760000		68	H	141.00
98	KA06MH0100	Musthrahally Tank	Karnataka Water Resources Department	12.81138889	78.24777778	1974	East flowing rivers between Pennar and Cauvery Basin	Naihole	bangarapet	II	Earthfill_Embankment	22.70	197	86540000				I	941.58
